[
  {
    "safeName": "Carrig-Island",
    "nameHtml": "<p><strong>Carrig Island</strong></p>\n",
    "geo": {
      "lat": "52.57946585",
      "long": -9.50984344
    }
  },
  {
    "safeName": "Foynes-Island",
    "nameHtml": "<p><strong>Foynes Island</strong></p>\n",
    "geo": {
      "lat": "52.61535948",
      "long": -9.1080081
    }
  },
  {
    "safeName": "Inishmurry",
    "nameHtml": "<p><strong>Inishmurry</strong></p>\n",
    "geo": {
      "lat": "52.65132463",
      "long": -9.10596166
    }
  },
  {
    "safeName": "Inishtubbrid",
    "nameHtml": "<p><strong>Inishtubbrid</strong></p>\n",
    "geo": {
      "lat": "52.66606523",
      "long": -9.06642438
    }
  },
  {
    "safeName": "Canon-Island",
    "nameHtml": "<p><strong>Canon Island</strong></p>\n",
    "geo": {
      "lat": "52.66975163",
      "long": -9.0561664
    }
  },
  {
    "safeName": "Inishloe",
    "nameHtml": "<p><strong>Inishloe</strong></p>\n",
    "geo": {
      "lat": "52.67998344",
      "long": -9.01649131
    }
  },
  {
    "safeName": "Blackthorn-Islands",
    "nameHtml": "<p><strong>Blackthorn Islands</strong></p>\n",
    "geo": {
      "lat": "52.67831233",
      "long": -9.00166725
    }
  },
  {
    "safeName": "Doon-Island",
    "nameHtml": "<p><strong>Doon Island</strong></p>\n",
    "geo": {
      "lat": "52.68675603",
      "long": -9.06397065
    }
  },
  {
    "safeName": "Inishmacowney",
    "nameHtml": "<p><strong>Inishmacowney</strong></p>\n",
    "geo": {
      "lat": "52.68688777",
      "long": -9.04918562
    }
  },
  {
    "safeName": "Illaunbeg-or-O’Donnell’s-Island",
    "nameHtml": "<p><strong>Illaunbeg or O’Donnell’s Island</strong></p>\n",
    "geo": {
      "lat": "52.68853964",
      "long": -9.06549288
    }
  },
  {
    "safeName": "Shore-Island",
    "nameHtml": "<p><strong>Shore Island</strong></p>\n",
    "geo": {
      "lat": "52.69311125",
      "long": -9.05672996
    }
  },
  {
    "safeName": "Feenish",
    "nameHtml": "<p><strong>Feenish</strong></p>\n",
    "geo": {
      "lat": "52.70278059",
      "long": -8.97707829
    }
  },
  {
    "safeName": "Deenish-Island",
    "nameHtml": "<p><strong>Deenish Island</strong></p>\n",
    "geo": {
      "lat": "52.71722884",
      "long": -8.96852201
    }
  },
  {
    "safeName": "Deer-Island",
    "nameHtml": "<p><strong>Deer Island</strong></p>\n",
    "geo": {
      "lat": "52.7139064",
      "long": -9.04243495
    }
  },
  {
    "safeName": "Coney-Island",
    "nameHtml": "<p><strong>Coney Island</strong></p>\n",
    "geo": {
      "lat": "52.71069433",
      "long": -8.99796971
    }
  },
  {
    "safeName": "Inishdadroum",
    "nameHtml": "<p><strong>Inishdadroum</strong></p>\n",
    "geo": {
      "lat": "52.70327968",
      "long": -9.02442927
    }
  },
  {
    "safeName": "Trummer",
    "nameHtml": "<p><strong>Trummer</strong></p>\n",
    "geo": {
      "lat": "52.70591091",
      "long": -9.0318882
    }
  },
  {
    "safeName": "Scattery-Island",
    "nameHtml": "<p><strong>Scattery Island</strong></p>\n",
    "geo": {
      "lat": "52.61537905",
      "long": -9.51255515
    }
  },
  {
    "safeName": "Hog-Island",
    "nameHtml": "<p><strong>Hog Island</strong></p>\n",
    "geo": {
      "lat": "52.62185467",
      "long": -9.49801141
    }
  },
  {
    "safeName": "Kilrush-area-to-Carrigaholt",
    "nameHtml": "<p><strong>Kilrush area to Carrigaholt</strong></p>\n",
    "geo": {
      "lat": "52.6281241",
      "long": -9.49970241
    }
  },
  {
    "safeName": "Carrigaholt-to-Kilbaha",
    "nameHtml": "<p><strong>Carrigaholt to Kilbaha</strong></p>\n",
    "geo": {
      "lat": "52.59936472",
      "long": -9.69945012
    }
  },
  {
    "safeName": "after-Galway-HWtdtd-width=574kntdtrtbodytableKilbaha-to-Loop-Head",
    "nameHtml": "<p>after Galway HW</td></p>\n<td width=\"57\">4kn</td>\n\n<p></tr></p>\n<p></tbody></p>\n<p></table></p>\n<p><strong>Kilbaha to Loop Head</strong></p>\n",
    "geo": {
      "lat": "52.56905991",
      "long": -9.86200028
    }
  },
  {
    "safeName": "Loop-Head-to-Bridges-of-Ross",
    "nameHtml": "<p><strong>Loop Head to Bridges of Ross</strong></p>\n",
    "geo": {
      "lat": "52.55974683",
      "long": -9.9382895
    }
  },
  {
    "safeName": "Bridges-of-Ross-to-Goleen-Bay",
    "nameHtml": "<p><strong>Bridges of Ross to Goleen Bay</strong></p>\n",
    "geo": {
      "lat": "52.59054565",
      "long": -9.86733822
    }
  },
  {
    "safeName": "Goleen-Bay-to-Kilkee",
    "nameHtml": "<p><strong>Goleen Bay to Kilkee</strong></p>\n",
    "geo": {
      "lat": "52.64286316",
      "long": -9.73659458
    }
  },
  {
    "safeName": "Kilkee-to-Doonbeg",
    "nameHtml": "<p><strong>Kilkee to Doonbeg</strong></p>\n",
    "geo": {
      "lat": "52.68367118",
      "long": -9.64800527
    }
  },
  {
    "safeName": "Doonbeg-to-Spanish-Point",
    "nameHtml": "<p><strong>Doonbeg to Spanish Point</strong></p>\n",
    "geo": {
      "lat": "52.73817763",
      "long": -9.53753173
    }
  },
  {
    "safeName": "Mattle-Island",
    "nameHtml": "<p><strong>Mattle Island</strong></p>\n",
    "geo": {
      "lat": "52.79046821",
      "long": -9.52455073
    }
  },
  {
    "safeName": "Mutton-Island",
    "nameHtml": "<p><strong>Mutton Island</strong></p>\n",
    "geo": {
      "lat": "52.8140315",
      "long": -9.50905984
    }
  },
  {
    "safeName": "Carrickaneelwar",
    "nameHtml": "<p><strong>Carrickaneelwar</strong></p>\n",
    "geo": {
      "lat": "52.82393129",
      "long": -9.50791928
    }
  },
  {
    "safeName": "Spanish-Point-to-Liscannor",
    "nameHtml": "<p><strong>Spanish Point to Liscannor</strong></p>\n",
    "geo": {
      "lat": "52.84191751",
      "long": -9.43433485
    }
  },
  {
    "safeName": "The-Cliffs-of-Moher",
    "nameHtml": "<p><strong>The Cliffs of Moher</strong></p>\n",
    "geo": {
      "lat": "52.93863481",
      "long": -9.38695791
    }
  },
  {
    "safeName": "Branaunmore-–-_An-Branán-Mór_",
    "nameHtml": "<p><strong>Branaunmore – <em>An Branán Mór</em></strong></p>\n",
    "geo": {
      "lat": "52.97401913",
      "long": -9.43423914
    }
  },
  {
    "safeName": "Crab-Island",
    "nameHtml": "<p><strong>Crab Island</strong></p>\n",
    "geo": {
      "lat": "53.01652312",
      "long": -9.41180615
    }
  },
  {
    "safeName": "Doolin-to-Ballyvaughan",
    "nameHtml": "<p><strong>Doolin to Ballyvaughan</strong></p>\n",
    "geo": {
      "lat": "53.0156954",
      "long": -9.40581874
    }
  },
  {
    "safeName": "Illaunloo",
    "nameHtml": "<p><strong>Illaunloo</strong></p>\n",
    "geo": {
      "lat": "53.15130256",
      "long": -9.16360716
    }
  },
  {
    "safeName": "Ballyvaughan-Harbour",
    "nameHtml": "<p><strong>Ballyvaughan Harbour</strong></p>\n",
    "geo": {
      "lat": "53.12626493",
      "long": -9.15097979
    }
  },
  {
    "safeName": "Poulnaclogh-Bay",
    "nameHtml": "<p><strong>Poulnaclogh Bay</strong></p>\n",
    "geo": {
      "lat": "53.14841546",
      "long": -9.08879692
    }
  },
  {
    "safeName": "Scanlan’s-Island",
    "nameHtml": "<p><strong>Scanlan’s Island</strong></p>\n",
    "geo": {
      "lat": "53.13916899",
      "long": -9.1169552
    }
  },
  {
    "safeName": "Aughinish-Island",
    "nameHtml": "<p><strong>Aughinish Island</strong></p>\n",
    "geo": {
      "lat": "53.16461334",
      "long": -9.08621637
    }
  },
  {
    "safeName": "Deer-Island",
    "nameHtml": "<p><strong>Deer Island</strong></p>\n",
    "geo": {
      "lat": "53.18360096",
      "long": -9.07323327
    }
  },
  {
    "safeName": "Mulroney’s-Island",
    "nameHtml": "<p><strong>Mulroney’s Island</strong></p>\n",
    "geo": {
      "lat": "53.15412031",
      "long": -8.94693265
    }
  },
  {
    "safeName": "Fiddaun-Island",
    "nameHtml": "<p><strong>Fiddaun Island</strong></p>\n",
    "geo": {
      "lat": "53.18991236",
      "long": -8.96567365
    }
  },
  {
    "safeName": "Island-Eddy",
    "nameHtml": "<p><strong>Island Eddy</strong></p>\n",
    "geo": {
      "lat": "53.1943557",
      "long": -8.97175836
    }
  },
  {
    "safeName": "Tawin-Island",
    "nameHtml": "<p><strong>Tawin Island</strong></p>\n",
    "geo": {
      "lat": "53.21976205",
      "long": -9.04868588
    }
  },
  {
    "safeName": "Rabbit-Island",
    "nameHtml": "<p><strong>Rabbit Island</strong></p>\n",
    "geo": {
      "lat": "53.26413111",
      "long": -9.009307
    }
  },
  {
    "safeName": "Hare-Island",
    "nameHtml": "<p><strong>Hare Island</strong></p>\n",
    "geo": {
      "lat": "53.25951154",
      "long": -9.02418325
    }
  },
  {
    "safeName": "Mutton-Island",
    "nameHtml": "<p><strong>Mutton Island</strong></p>\n",
    "geo": {
      "lat": "53.25565704",
      "long": -9.05405856
    }
  },
  {
    "safeName": "Inisheer-–-_Inis-Oírr_",
    "nameHtml": "<p><strong>Inisheer – <em>Inis Oírr</em></strong></p>\n",
    "geo": {
      "lat": "53.06642009",
      "long": -9.51935937
    }
  },
  {
    "safeName": "Inishmaan-–-_Inis-Meáin_",
    "nameHtml": "<p><strong>Inishmaan – <em>Inis Meáin</em></strong></p>\n",
    "geo": {
      "lat": "53.08189029",
      "long": -9.57363087
    }
  },
  {
    "safeName": "Inishmore-–-_Inis-Mór_",
    "nameHtml": "<p><strong>Inishmore – <em>Inis Mór</em></strong></p>\n",
    "geo": {
      "lat": "53.11833334",
      "long": -9.66906392
    }
  },
  {
    "safeName": "_An-t-Oileán-Iatharach_",
    "nameHtml": "<p><strong><em>An t-Oileán Iatharach</em></strong></p>\n",
    "geo": {
      "lat": "53.14612871",
      "long": -9.85548253
    }
  },
  {
    "safeName": "_Oileán-Dá-Bhranóg_",
    "nameHtml": "<p><strong><em>Oileán Dá Bhranóg</em></strong></p>\n",
    "geo": {
      "lat": "53.14276822",
      "long": -9.84039178
    }
  },
  {
    "safeName": "Straw-Island-–-_Oileán-na-Tuí_",
    "nameHtml": "<p><strong>Straw Island – <em>Oileán na Tuí</em></strong></p>\n",
    "geo": {
      "lat": "53.1161766",
      "long": -9.63014626
    }
  },
  {
    "safeName": "Inisheltia--Clynagh-and-flood-EW.Dunmanus-Island",
    "nameHtml": "<p>Inisheltia / Clynagh and flood E/W.</p>\n<p><strong>Dunmanus Island</strong></p>\n",
    "geo": {
      "lat": "53.36188122",
      "long": -9.60195534
    }
  },
  {
    "safeName": "Inisheltia-_–-Inis-Aillte_",
    "nameHtml": "<p><strong>Inisheltia <em>– Inis Aillte</em></strong></p>\n",
    "geo": {
      "lat": "53.35200161",
      "long": -9.60158485
    }
  },
  {
    "safeName": "Clynagh-Island-_–-An-Cladhnach_",
    "nameHtml": "<p><strong>Clynagh Island <em>– An Cladhnach</em></strong></p>\n",
    "geo": {
      "lat": "53.34765137",
      "long": -9.59090993
    }
  },
  {
    "safeName": "Gorumna-Island-–-_Oileán-Gharmna_",
    "nameHtml": "<p><strong>Gorumna Island – <em>Oileán Gharmna</em></strong></p>\n",
    "geo": {
      "lat": "53.27939312",
      "long": -9.65434295
    }
  },
  {
    "safeName": "Illaunnanownim-–-_Oileán-an-Anama_",
    "nameHtml": "<p><strong>Illaunnanownim – <em>Oileán an Anama</em></strong></p>\n",
    "geo": {
      "lat": "53.22403965",
      "long": -9.69263778
    }
  },
  {
    "safeName": "Lettermore-Island-–-_Leitir-Móir_",
    "nameHtml": "<p><strong>Lettermore Island – <em>Leitir Móir</em></strong></p>\n",
    "geo": {
      "lat": "53.29386701",
      "long": -9.64740314
    }
  },
  {
    "safeName": "Annaghvaan-–-Eanach-Mheáin",
    "nameHtml": "<p><strong>Annaghvaan – Eanach Mheáin</strong></p>\n",
    "geo": {
      "lat": "53.30844336",
      "long": -9.63296104
    }
  },
  {
    "safeName": "Inishlay-–-_Inis-Léith_",
    "nameHtml": "<p><strong>Inishlay – <em>Inis Léith</em></strong></p>\n",
    "geo": {
      "lat": "53.28766269",
      "long": -9.64116604
    }
  },
  {
    "safeName": "_An-tOileán-Iarthach-Theas_",
    "nameHtml": "<p><strong><em>An tOileán Iarthach Theas</em></strong></p>\n",
    "geo": {
      "lat": "53.27702884",
      "long": -9.63026405
    }
  },
  {
    "safeName": "Inchamakinna-_Inis-Mhic-Cionaith_",
    "nameHtml": "<p><strong>Inchamakinna <em>Inis Mhic Cionaith</em></strong></p>\n",
    "geo": {
      "lat": "53.27629395",
      "long": -9.61824252
    }
  },
  {
    "safeName": "Lettermullan-Island-–-_Leitir-Mealláin_",
    "nameHtml": "<p><strong>Lettermullan Island – <em>Leitir Mealláin</em></strong></p>\n",
    "geo": {
      "lat": "53.23116927",
      "long": -9.75881514
    }
  },
  {
    "safeName": "Dog-Island-–-_Oileán-an-Mhadra_",
    "nameHtml": "<p><strong>Dog Island – <em>Oileán an Mhadra</em></strong></p>\n",
    "geo": {
      "lat": "53.22891287",
      "long": -9.72877136
    }
  },
  {
    "safeName": "Golam-Island-_–-Gólam_",
    "nameHtml": "<p><strong>Golam Island <em>– Gólam</em></strong></p>\n",
    "geo": {
      "lat": "53.23011614",
      "long": -9.76925526
    }
  },
  {
    "safeName": "Eagle-Rock-–-Carraig-Iolar",
    "nameHtml": "<p><strong>Eagle Rock – Carraig Iolar</strong></p>\n",
    "geo": {
      "lat": "53.23332807",
      "long": -9.79484909
    }
  },
  {
    "safeName": "Redflag-Island-–-_Leac-Dearg_",
    "nameHtml": "<p><strong>Redflag Island – <em>Leac Dearg</em></strong></p>\n",
    "geo": {
      "lat": "53.23869397",
      "long": -9.79657153
    }
  },
  {
    "safeName": "Freaghillaunmore-–-_Fraochoileán-Mór_",
    "nameHtml": "<p><strong>Freaghillaunmore – <em>Fraochoileán Mór</em></strong></p>\n",
    "geo": {
      "lat": "53.24008384",
      "long": -9.76367456
    }
  },
  {
    "safeName": "Freaghillaun-Beg-–-_Fraochoileán-Beag_",
    "nameHtml": "<p><strong>Freaghillaun Beg – <em>Fraochoileán Beag</em></strong></p>\n",
    "geo": {
      "lat": "53.24192428",
      "long": -9.76075419
    }
  },
  {
    "safeName": "Crappagh-_–-An-Chnapach_",
    "nameHtml": "<p><strong>Crappagh <em>– An Chnapach</em></strong></p>\n",
    "geo": {
      "lat": "53.24205661",
      "long": -9.75177146
    }
  },
  {
    "safeName": "Inisherk-_–-Inis-Eirc_",
    "nameHtml": "<p><strong>Inisherk <em>– Inis Eirc</em></strong></p>\n",
    "geo": {
      "lat": "53.24746717",
      "long": -9.75049427
    }
  },
  {
    "safeName": "Furnace-–-_Fornais_",
    "nameHtml": "<p><strong>Furnace – <em>Fornais</em></strong></p>\n",
    "geo": {
      "lat": "53.2484092",
      "long": -9.74753623
    }
  },
  {
    "safeName": "Dinish-–-_Daighinis_",
    "nameHtml": "<p><strong>Dinish – <em>Daighinis</em></strong></p>\n",
    "geo": {
      "lat": "53.2662831",
      "long": -9.75426056
    }
  },
  {
    "safeName": "Illauncasheen-–-_Oileán-an-Chaisín_",
    "nameHtml": "<p><strong>Illauncasheen – <em>Oileán an Chaisín</em></strong></p>\n",
    "geo": {
      "lat": "53.25664528",
      "long": -9.73738224
    }
  },
  {
    "safeName": "Ilaunmaan-–-_Oileán-Meana_",
    "nameHtml": "<p><strong>Ilaunmaan – <em>Oileán Meana</em></strong></p>\n",
    "geo": {
      "lat": "53.28597481",
      "long": -9.75956588
    }
  },
  {
    "safeName": "Illauneeragh-–-_An-tOileán-Iatharach_",
    "nameHtml": "<p><strong>Illauneeragh – <em>An tOileán Iatharach</em></strong></p>\n",
    "geo": {
      "lat": "53.27817779",
      "long": -9.73975481
    }
  },
  {
    "safeName": "Inishbarra-–-_Inis-Bearacháin_",
    "nameHtml": "<p><strong>Inishbarra – <em>Inis Bearacháin</em></strong></p>\n",
    "geo": {
      "lat": "53.27950929",
      "long": -9.70982228
    }
  },
  {
    "safeName": "Cow-Island",
    "nameHtml": "<p><strong>Cow Island</strong></p>\n",
    "geo": {
      "lat": "53.27153344",
      "long": -9.70200873
    }
  },
  {
    "safeName": "Big-Island",
    "nameHtml": "<p><strong>Big Island</strong></p>\n",
    "geo": {
      "lat": "53.27521129",
      "long": -9.69615816
    }
  },
  {
    "safeName": "Puck-Island",
    "nameHtml": "<p><strong>Puck Island</strong></p>\n",
    "geo": {
      "lat": "53.27784162",
      "long": -9.70076011
    }
  },
  {
    "safeName": "Illaunroe",
    "nameHtml": "<p><strong>Illaunroe</strong></p>\n",
    "geo": {
      "lat": "53.28669416",
      "long": -9.71010917
    }
  },
  {
    "safeName": "Inchagaun   -_Inis-an-Ghainimh_",
    "nameHtml": "<p><strong>Inchagaun    <em>Inis an Ghainimh</em></strong></p>\n",
    "geo": {
      "lat": "53.29466943",
      "long": -9.71792704
    }
  },
  {
    "safeName": "Kinnelly-Islands",
    "nameHtml": "<p><strong>Kinnelly Islands</strong></p>\n",
    "geo": {
      "lat": "53.32082217",
      "long": -9.71147353
    }
  },
  {
    "safeName": "Illaunakirka",
    "nameHtml": "<p><strong>Illaunakirka</strong></p>\n",
    "geo": {
      "lat": "53.31654582",
      "long": -9.69629617
    }
  },
  {
    "safeName": "Inishtravin-–-_Inis-Treabhair_",
    "nameHtml": "<p><strong>Inishtravin – <em>Inis Treabhair</em></strong></p>\n",
    "geo": {
      "lat": "53.31972563",
      "long": -9.6619055
    }
  },
  {
    "safeName": "Inishlusk",
    "nameHtml": "<p><strong>Inishlusk</strong></p>\n",
    "geo": {
      "lat": "53.31176747",
      "long": -9.65259367
    }
  },
  {
    "safeName": "Illaungurraig",
    "nameHtml": "<p><strong>Illaungurraig</strong></p>\n",
    "geo": {
      "lat": "53.31435776",
      "long": -9.66019641
    }
  },
  {
    "safeName": "Beaghy-Islands-–-_Na-Beitheacha_",
    "nameHtml": "<p><strong>Beaghy Islands – <em>Na Beitheacha</em></strong></p>\n",
    "geo": {
      "lat": "53.32691063",
      "long": -9.66218474
    }
  },
  {
    "safeName": "Illaunard-–-_An-tOileán-Garbh_",
    "nameHtml": "<p><strong>Illaunard – <em>An tOileán Garbh</em></strong></p>\n",
    "geo": {
      "lat": "53.32837011",
      "long": -9.686258
    }
  },
  {
    "safeName": "North-Island-–-_An-tOileán-ó-Thuaidh_",
    "nameHtml": "<p><strong>North Island – <em>An tOileán ó Thuaidh</em></strong></p>\n",
    "geo": {
      "lat": "53.33008137",
      "long": -9.69232988
    }
  },
  {
    "safeName": "_Oileáin-na-Craoibhe_",
    "nameHtml": "<p><strong><em>Oileáin na Craoibhe</em></strong></p>\n",
    "geo": {
      "lat": "53.33749921",
      "long": -9.67610866
    }
  },
  {
    "safeName": "Illauneeragh-West-_An-tOileán-Iatharach-Thiar_",
    "nameHtml": "<p><strong>Illauneeragh West <em>An tOileán Iatharach Thiar</em></strong></p>\n",
    "geo": {
      "lat": "53.35285136",
      "long": -9.6707034
    }
  },
  {
    "safeName": "Illaunmore-–-_An-tOileán-Mór_",
    "nameHtml": "<p><strong>Illaunmore – <em>An tOileán Mór</em></strong></p>\n",
    "geo": {
      "lat": "53.35391697",
      "long": -9.65872964
    }
  },
  {
    "safeName": "Crow-Island-–-_An-Cró_",
    "nameHtml": "<p><strong>Crow Island – <em>An Cró</em></strong></p>\n",
    "geo": {
      "lat": "53.35642281",
      "long": -9.6723451
    }
  },
  {
    "safeName": "Illaunnagappul-–-_Oileán-na-gCapall_",
    "nameHtml": "<p><strong>Illaunnagappul – <em>Oileán na gCapall</em></strong></p>\n",
    "geo": {
      "lat": "53.36022468",
      "long": -9.65747248
    }
  },
  {
    "safeName": "Illaunrossalough",
    "nameHtml": "<p><strong>Illaunrossalough</strong></p>\n",
    "geo": {
      "lat": "53.3774345",
      "long": -9.64762147
    }
  },
  {
    "safeName": "Birmore-Island-–-_Bior-Mór_",
    "nameHtml": "<p><strong>Birmore Island – <em>Bior Mór</em></strong></p>\n",
    "geo": {
      "lat": "53.27378643",
      "long": -9.79354548
    }
  },
  {
    "safeName": "Birbeg-Island-–-_Bior-Beag_",
    "nameHtml": "<p><strong>Birbeg Island – <em>Bior Beag</em></strong></p>\n",
    "geo": {
      "lat": "53.28191409",
      "long": -9.79088699
    }
  },
  {
    "safeName": "Inishmuskerry-–-_Oileán-Múscraí_",
    "nameHtml": "<p><strong>Inishmuskerry – <em>Oileán Múscraí</em></strong></p>\n",
    "geo": {
      "lat": "53.27600326",
      "long": -9.82512207
    }
  },
  {
    "safeName": "Finish-Island-–-_Oileán-Finis_",
    "nameHtml": "<p><strong>Finish Island – <em>Oileán Finis</em></strong></p>\n",
    "geo": {
      "lat": "53.29592058",
      "long": -9.81547173
    }
  },
  {
    "safeName": "Duck-Island-–-_Oileán-Lachan_",
    "nameHtml": "<p><strong>Duck Island – <em>Oileán Lachan</em></strong></p>\n",
    "geo": {
      "lat": "53.28014742",
      "long": -9.84778935
    }
  },
  {
    "safeName": "Mweenish-Island-_Oileán-Mhuighinse_",
    "nameHtml": "<p><strong>Mweenish Island <em>Oileán Mhuighinse</em></strong></p>\n",
    "geo": {
      "lat": "53.30070926",
      "long": -9.85467746
    }
  },
  {
    "safeName": "Inishtroghenmore-–-_Inis-Srathair_",
    "nameHtml": "<p><strong>Inishtroghenmore – <em>Inis Srathair</em></strong></p>\n",
    "geo": {
      "lat": "53.31699025",
      "long": -9.84788003
    }
  },
  {
    "safeName": "Mason-Island-–-_Oileán-Máisean_",
    "nameHtml": "<p><strong>Mason Island – <em>Oileán Máisean</em></strong></p>\n",
    "geo": {
      "lat": "53.30116102",
      "long": -9.88319939
    }
  },
  {
    "safeName": "Ardnacross-Island",
    "nameHtml": "<p><strong>Ardnacross Island</strong></p>\n",
    "geo": {
      "lat": "53.29938864",
      "long": -9.88162133
    }
  },
  {
    "safeName": "Avery-Island-–-_Oileán-Aimhréidh_",
    "nameHtml": "<p><strong>Avery Island – <em>Oileán Aimhréidh</em></strong></p>\n",
    "geo": {
      "lat": "53.30368895",
      "long": -9.89381217
    }
  },
  {
    "safeName": "Wherroon-Island-–-_Na-Fioriúin_",
    "nameHtml": "<p><strong>Wherroon Island – <em>Na Fioriúin</em></strong></p>\n",
    "geo": {
      "lat": "53.30713784",
      "long": -9.90296687
    }
  },
  {
    "safeName": "Saint-MacDara’s-Island-–-_Oileán-Mhic-Dara_",
    "nameHtml": "<p><strong>Saint MacDara’s Island – <em>Oileán Mhic Dara</em></strong></p>\n",
    "geo": {
      "lat": "53.30422782",
      "long": -9.91633962
    }
  },
  {
    "safeName": "Skerdmore-–-_Sceirde-Mór_",
    "nameHtml": "<p><strong>Skerdmore – <em>Sceirde Mór</em></strong></p>\n",
    "geo": {
      "lat": "53.25687738",
      "long": -10.0086335
    }
  },
  {
    "safeName": "Skerdbeg-–-_Sceirde-Beg_",
    "nameHtml": "<p><strong>Skerdbeg – <em>Sceirde Beg</em></strong></p>\n",
    "geo": {
      "lat": "53.25695299",
      "long": -10.00414121
    }
  },
  {
    "safeName": "Doonguddle-–-_Dún-Godail_",
    "nameHtml": "<p><strong>Doonguddle – <em>Dún Godail</em></strong></p>\n",
    "geo": {
      "lat": "53.25361188",
      "long": -9.98900009
    }
  },
  {
    "safeName": "Doonmane-–-_Dún-Mánas_",
    "nameHtml": "<p><strong>Doonmane – <em>Dún Mánas</em></strong></p>\n",
    "geo": {
      "lat": "53.27126996",
      "long": -10.00780919
    }
  },
  {
    "safeName": "Doolick-–-_Dúleac_",
    "nameHtml": "<p><strong>Doolick – <em>Dúleac</em></strong></p>\n",
    "geo": {
      "lat": "53.27621079",
      "long": -9.98105374
    }
  },
  {
    "safeName": "Croaghnakeela-–-_Cruach-na-Caoile_",
    "nameHtml": "<p><strong>Croaghnakeela – <em>Cruach na Caoile</em></strong></p>\n",
    "geo": {
      "lat": "53.32587217",
      "long": -9.96684297
    }
  },
  {
    "safeName": "Illaunacroagh-More-–-_Oileán-na-Cruaiche-Mor_",
    "nameHtml": "<p><strong>Illaunacroagh More – <em>Oileán na Cruaiche Mor</em></strong></p>\n",
    "geo": {
      "lat": "53.34662432",
      "long": -9.96179128
    }
  },
  {
    "safeName": "Illaunacroagh-Beg-–-Oileán-na-Cruiche-Beag",
    "nameHtml": "<p><strong>Illaunacroagh Beg – Oileán na Cruiche Beag</strong></p>\n",
    "geo": {
      "lat": "53.33948982",
      "long": -9.95846074
    }
  },
  {
    "safeName": "Colt-Island",
    "nameHtml": "<p><strong>Colt Island</strong></p>\n",
    "geo": {
      "lat": "53.24876688",
      "long": -9.90037514
    }
  },
  {
    "safeName": "Inishbigger-–-_Inis-Bigir_",
    "nameHtml": "<p><strong>Inishbigger – <em>Inis Bigir</em></strong></p>\n",
    "geo": {
      "lat": "53.34776292",
      "long": -9.89126011
    }
  },
  {
    "safeName": "Freaghillaun-–-_Fraochoileán_",
    "nameHtml": "<p><strong>Freaghillaun – <em>Fraochoileán</em></strong></p>\n",
    "geo": {
      "lat": "53.35210991",
      "long": -9.9004641
    }
  },
  {
    "safeName": "Inishtreh-–-_Inis-Troighe_",
    "nameHtml": "<p><strong>Inishtreh – <em>Inis Troighe</em></strong></p>\n",
    "geo": {
      "lat": "53.36926746",
      "long": -9.89521778
    }
  },
  {
    "safeName": "Inishlackan-–-_Inis-Leacan_",
    "nameHtml": "<p><strong>Inishlackan – <em>Inis Leacan</em></strong></p>\n",
    "geo": {
      "lat": "53.37424742",
      "long": -9.92098487
    }
  },
  {
    "safeName": "Inishnee-–-_Inis-Ní_",
    "nameHtml": "<p><strong>Inishnee – <em>Inis Ní</em></strong></p>\n",
    "geo": {
      "lat": "53.37994795",
      "long": -9.90170372
    }
  },
  {
    "safeName": "Oghly-Island-–-_Oileán-an-Chlaí_",
    "nameHtml": "<p><strong>Oghly Island – <em>Oileán an Chlaí</em></strong></p>\n",
    "geo": {
      "lat": "53.38744143",
      "long": -9.88249663
    }
  },
  {
    "safeName": "Illaungorm-North",
    "nameHtml": "<p><strong>Illaungorm North</strong></p>\n",
    "geo": {
      "lat": "53.39461406",
      "long": -9.82568372
    }
  },
  {
    "safeName": "Illaundoon",
    "nameHtml": "<p><strong>Illaundoon</strong></p>\n",
    "geo": {
      "lat": "53.39723915",
      "long": -9.83030658
    }
  },
  {
    "safeName": "Illaunnamrogue-–-_oileán-na-mBróg_",
    "nameHtml": "<p><strong>Illaunnamrogue – <em>oileán na mBróg</em></strong></p>\n",
    "geo": {
      "lat": "53.39905825",
      "long": -9.8288811
    }
  },
  {
    "safeName": "Illaungorm-South",
    "nameHtml": "<p><strong>Illaungorm South</strong></p>\n",
    "geo": {
      "lat": "53.39198877",
      "long": -9.82106143
    }
  },
  {
    "safeName": "Croghnut",
    "nameHtml": "<p><strong>Croghnut</strong></p>\n",
    "geo": {
      "lat": "53.39212591",
      "long": -9.81204742
    }
  },
  {
    "safeName": "Illaunacroghnut",
    "nameHtml": "<p><strong>Illaunacroghnut</strong></p>\n",
    "geo": {
      "lat": "53.39394478",
      "long": -9.81062133
    }
  },
  {
    "safeName": "Illaunaknock-–-_Oileán-an-Cnoich_",
    "nameHtml": "<p><strong>Illaunaknock – <em>Oileán an Cnoich</em></strong></p>\n",
    "geo": {
      "lat": "53.38768124",
      "long": -9.80885232
    }
  },
  {
    "safeName": "Inishfadda-Islands",
    "nameHtml": "<p><strong>Inishfadda Islands</strong></p>\n",
    "geo": {
      "lat": "53.38781745",
      "long": -9.79983916
    }
  },
  {
    "safeName": "Green-Islands-–-_Glasoileáin_",
    "nameHtml": "<p><strong>Green Islands – <em>Glasoileáin</em></strong></p>\n",
    "geo": {
      "lat": "53.41273518",
      "long": -9.81593157
    }
  },
  {
    "safeName": "Fox-Island",
    "nameHtml": "<p><strong>Fox Island</strong></p>\n",
    "geo": {
      "lat": "53.41639582",
      "long": -9.81157505
    }
  },
  {
    "safeName": "Inishdawros-–-_Inis-Damhraí_",
    "nameHtml": "<p><strong>Inishdawros – <em>Inis Damhraí</em></strong></p>\n",
    "geo": {
      "lat": "53.40280891",
      "long": -10.04106623
    }
  },
  {
    "safeName": "Illaunurra-–-_Oileán-Ura_",
    "nameHtml": "<p><strong>Illaunurra – <em>Oileán Ura</em></strong></p>\n",
    "geo": {
      "lat": "53.39415802",
      "long": -10.12484554
    }
  },
  {
    "safeName": "Strawbeach-Island-_Oileán-na-Muiríleach_",
    "nameHtml": "<p><strong>Strawbeach Island <em>Oileán na Muiríleach</em></strong></p>\n",
    "geo": {
      "lat": "53.40289529",
      "long": -10.13881501
    }
  },
  {
    "safeName": "Horse-Island-_Olieán-na-gCapaill_",
    "nameHtml": "<p><strong>Horse Island <em>Olieán na gCapaill</em></strong></p>\n",
    "geo": {
      "lat": "53.39835211",
      "long": -10.14159433
    }
  },
  {
    "safeName": "Illaunamid-–-_Oileán-Imill_",
    "nameHtml": "<p><strong>Illaunamid – <em>Oileán Imill</em></strong></p>\n",
    "geo": {
      "lat": "53.40023634",
      "long": -10.2349183
    }
  },
  {
    "safeName": "Chapel-Island-–-_Oileán-an-Teampaill_",
    "nameHtml": "<p><strong>Chapel Island – <em>Oileán an Teampaill</em></strong></p>\n",
    "geo": {
      "lat": "53.39891603",
      "long": -10.20928683
    }
  },
  {
    "safeName": "Ferroon-Rocks",
    "nameHtml": "<p><strong>Ferroon Rocks</strong></p>\n",
    "geo": {
      "lat": "53.39611123",
      "long": -10.21515574
    }
  },
  {
    "safeName": "Duck-Island-–-_Oileán_-_Lachan_",
    "nameHtml": "<p><strong>Duck Island – <em>Oileán</em> <em>Lachan</em></strong></p>\n",
    "geo": {
      "lat": "53.40354391",
      "long": -10.20200758
    }
  },
  {
    "safeName": "Doonawaul-–-_Dún-na-bhFál_",
    "nameHtml": "<p><strong>Doonawaul – <em>Dún na bhFál</em></strong></p>\n",
    "geo": {
      "lat": "53.40822657",
      "long": -10.19172162
    }
  },
  {
    "safeName": "Illaunaleama-–-Oileán-na-Léime",
    "nameHtml": "<p><strong>Illaunaleama – Oileán na Léime</strong></p>\n",
    "geo": {
      "lat": "53.4074664",
      "long": -10.18416276
    }
  },
  {
    "safeName": "Inishkeeragh-–-_Inis-Caorach_",
    "nameHtml": "<p><strong>Inishkeeragh – <em>Inis Caorach</em></strong></p>\n",
    "geo": {
      "lat": "53.43464826",
      "long": -10.17201266
    }
  },
  {
    "safeName": "_na-Meannán_",
    "nameHtml": "<p><strong><em>na Meannán</em></strong></p>\n",
    "geo": {
      "lat": "53.43818488",
      "long": -10.17520316
    }
  },
  {
    "safeName": "Calf-Islands",
    "nameHtml": "<p><strong>Calf Islands</strong></p>\n",
    "geo": {
      "lat": "53.43845777",
      "long": -10.16016667
    }
  },
  {
    "safeName": "Inishdugga-–-_Inis-Duga_",
    "nameHtml": "<p><strong>Inishdugga – <em>Inis Duga</em></strong></p>\n",
    "geo": {
      "lat": "53.44300136",
      "long": -10.15738684
    }
  },
  {
    "safeName": "Ardillaun",
    "nameHtml": "<p><strong>Ardillaun</strong></p>\n",
    "geo": {
      "lat": "53.45814347",
      "long": -10.06329406
    }
  },
  {
    "safeName": "Turbot-Island-–-_Tairbeart_",
    "nameHtml": "<p><strong>Turbot Island – <em>Tairbeart</em></strong></p>\n",
    "geo": {
      "lat": "53.50261112",
      "long": -10.14081837
    }
  },
  {
    "safeName": "Eeshal-Island-–-_An-tOileán-Íseal_",
    "nameHtml": "<p><strong>Eeshal Island – <em>An tOileán Íseal</em></strong></p>\n",
    "geo": {
      "lat": "53.50661168",
      "long": -10.16815423
    }
  },
  {
    "safeName": "Inishturk-–-_Inis-Toirc_",
    "nameHtml": "<p><strong>Inishturk – <em>Inis Toirc</em></strong></p>\n",
    "geo": {
      "lat": "53.50870672",
      "long": -10.15167835
    }
  },
  {
    "safeName": "Hog-Island",
    "nameHtml": "<p><strong>Hog Island</strong></p>\n",
    "geo": {
      "lat": "53.519778",
      "long": -10.13565239
    }
  },
  {
    "safeName": "Streamstown-Bay",
    "nameHtml": "<p><strong>Streamstown Bay</strong></p>\n",
    "geo": {
      "lat": "53.52157369",
      "long": -10.13574273
    }
  },
  {
    "safeName": "Boolard-Island",
    "nameHtml": "<p><strong>Boolard Island</strong></p>\n",
    "geo": {
      "lat": "53.50937546",
      "long": -10.06276738
    }
  },
  {
    "safeName": "Omey-Island-–-_Oileán_-_Iomaí_",
    "nameHtml": "<p><strong>Omey Island – <em>Oileán</em> <em>Iomaí</em></strong></p>\n",
    "geo": {
      "lat": "53.52911203",
      "long": -10.16628723
    }
  },
  {
    "safeName": "Dog-Island",
    "nameHtml": "<p><strong>Dog Island</strong></p>\n",
    "geo": {
      "lat": "53.56777311",
      "long": -10.16524396
    }
  },
  {
    "safeName": "Roeillaun",
    "nameHtml": "<p><strong>Roeillaun</strong></p>\n",
    "geo": {
      "lat": "53.56883443",
      "long": -10.15624016
    }
  },
  {
    "safeName": "Gooreen-Island",
    "nameHtml": "<p><strong>Gooreen Island</strong></p>\n",
    "geo": {
      "lat": "53.56796378",
      "long": -10.15468621
    }
  },
  {
    "safeName": "Glassillaun",
    "nameHtml": "<p><strong>Glassillaun</strong></p>\n",
    "geo": {
      "lat": "53.57518068",
      "long": -10.05087145
    }
  },
  {
    "safeName": "Freaghillaun-South           -_Fraochoileán-Theas_",
    "nameHtml": "<p><strong>Freaghillaun South            <em>Fraochoileán Theas</em></strong></p>\n",
    "geo": {
      "lat": "53.57620766",
      "long": -10.04337167
    }
  },
  {
    "safeName": "Braadillaun",
    "nameHtml": "<p><strong>Braadillaun</strong></p>\n",
    "geo": {
      "lat": "53.58798321",
      "long": -10.03789856
    }
  },
  {
    "safeName": "Roeillaun",
    "nameHtml": "<p><strong>Roeillaun</strong></p>\n",
    "geo": {
      "lat": "53.56709513",
      "long": -9.99764518
    }
  },
  {
    "safeName": "Inisbroon     -Inis-Brún",
    "nameHtml": "<p><strong>Inisbroon      Inis Brún</strong></p>\n",
    "geo": {
      "lat": "53.60822067",
      "long": -10.06304982
    }
  },
  {
    "safeName": "Illaunnamweelim",
    "nameHtml": "<p><strong>Illaunnamweelim</strong></p>\n",
    "geo": {
      "lat": "53.61022407",
      "long": -10.05105856
    }
  },
  {
    "safeName": "Illaunananima-–-_Oileán_-_an-Anama_",
    "nameHtml": "<p><strong>Illaunananima – <em>Oileán</em> <em>an Anama</em></strong></p>\n",
    "geo": {
      "lat": "53.62366638",
      "long": -10.05322204
    }
  },
  {
    "safeName": "Freaghillaun-North-–-_Fraochoileán-Thuaidh_",
    "nameHtml": "<p><strong>Freaghillaun North – <em>Fraochoileán Thuaidh</em></strong></p>\n",
    "geo": {
      "lat": "53.6170741",
      "long": -10.01814082
    }
  },
  {
    "safeName": "Crump-Island-–-_Oileán-Dá-Chruinne_",
    "nameHtml": "<p><strong>Crump Island – <em>Oileán Dá Chruinne</em></strong></p>\n",
    "geo": {
      "lat": "53.62191831",
      "long": -9.99721064
    }
  },
  {
    "safeName": "No-Name-Island",
    "nameHtml": "<p><strong>No Name Island</strong></p>\n",
    "geo": {
      "lat": "53.62112106",
      "long": -9.99112704
    }
  },
  {
    "safeName": "Shanvally-Beg",
    "nameHtml": "<p><strong>Shanvally Beg</strong></p>\n",
    "geo": {
      "lat": "53.61845244",
      "long": -9.98949003
    }
  },
  {
    "safeName": "Illaunmore-–-_Oileán-Mór_",
    "nameHtml": "<p><strong>Illaunmore – <em>Oileán Mór</em></strong></p>\n",
    "geo": {
      "lat": "53.61739782",
      "long": -9.88818052
    }
  },
  {
    "safeName": "Inishbearna",
    "nameHtml": "<p><strong>Inishbearna</strong></p>\n",
    "geo": {
      "lat": "53.62836352",
      "long": -9.87657638
    }
  },
  {
    "safeName": "Donee",
    "nameHtml": "<p><strong>Donee</strong></p>\n",
    "geo": {
      "lat": "53.63079575",
      "long": -9.89331418
    }
  },
  {
    "safeName": "Illanballa",
    "nameHtml": "<p><strong>Illanballa</strong></p>\n",
    "geo": {
      "lat": "53.60112588",
      "long": -9.77717117
    }
  },
  {
    "safeName": "Cruagh-Island-–-_An-Chruach_",
    "nameHtml": "<p><strong>Cruagh Island – <em>An Chruach</em></strong></p>\n",
    "geo": {
      "lat": "53.52561884",
      "long": -10.20984502
    }
  },
  {
    "safeName": "Friar-Island-–-_Oileán-na-mBráthar_",
    "nameHtml": "<p><strong>Friar Island – <em>Oileán na mBráthar</em></strong></p>\n",
    "geo": {
      "lat": "53.54955165",
      "long": -10.2276912
    }
  },
  {
    "safeName": "High-Island-–-_Ard-Oileán_",
    "nameHtml": "<p><strong>High Island – <em>Ard Oileán</em></strong></p>\n",
    "geo": {
      "lat": "53.54727592",
      "long": -10.25322343
    }
  },
  {
    "safeName": "Inishshark--_Inis-Airc_",
    "nameHtml": "<p><strong>Inishshark  <em>Inis Airc</em></strong></p>\n",
    "geo": {
      "lat": "53.60456184",
      "long": -10.2653386
    }
  },
  {
    "safeName": "Inishskinnymore-–-_Inis-Scine-Mór_",
    "nameHtml": "<p><strong>Inishskinnymore – <em>Inis Scine Mór</em></strong></p>\n",
    "geo": {
      "lat": "53.6058012",
      "long": -10.2472727
    }
  },
  {
    "safeName": "Inishskinnybeg-–-_Inis-Scine-Beag_",
    "nameHtml": "<p><strong>Inishskinnybeg – <em>Inis Scine Beag</em></strong></p>\n",
    "geo": {
      "lat": "53.60936389",
      "long": -10.24897308
    }
  },
  {
    "safeName": "Inishgort--_Inis-Goirt_",
    "nameHtml": "<p><strong>Inishgort  <em>Inis Goirt</em></strong></p>\n",
    "geo": {
      "lat": "53.59474362",
      "long": -10.26179188
    }
  },
  {
    "safeName": "–-The-Boy",
    "nameHtml": "<p><strong>– The Boy</strong></p>\n",
    "geo": {
      "lat": "53.60838814",
      "long": -10.3002993
    }
  },
  {
    "safeName": "Inishbofin-–-_Inis-Bo-Finne_",
    "nameHtml": "<p><strong>Inishbofin – <em>Inis Bo Finne</em></strong></p>\n",
    "geo": {
      "lat": "53.6128443",
      "long": -10.2068427
    }
  },
  {
    "safeName": "Inishlyon -–-_Inis-Laighean_",
    "nameHtml": "<p><strong>Inishlyon  – <em>Inis Laighean</em></strong></p>\n",
    "geo": {
      "lat": "53.61249959",
      "long": -10.1765999
    }
  },
  {
    "safeName": "Davillaun-–-_Damhoileán_",
    "nameHtml": "<p><strong>Davillaun – <em>Damhoileán</em></strong></p>\n",
    "geo": {
      "lat": "53.62757249",
      "long": -10.13806975
    }
  },
  {
    "safeName": "Inishdegil-More",
    "nameHtml": "<p><strong>Inishdegil More</strong></p>\n",
    "geo": {
      "lat": "53.63946304",
      "long": -9.91335996
    }
  },
  {
    "safeName": "Inishdegil-Beg--Carrignaglamph",
    "nameHtml": "<p><strong>Inishdegil Beg / Carrignaglamph</strong></p>\n",
    "geo": {
      "lat": "53.64137947",
      "long": -9.90588576
    }
  },
  {
    "safeName": "Govern-Island",
    "nameHtml": "<p><strong>Govern Island</strong></p>\n",
    "geo": {
      "lat": "53.65521259",
      "long": -9.93978899
    }
  },
  {
    "safeName": "Frehill-Island",
    "nameHtml": "<p><strong>Frehill Island</strong></p>\n",
    "geo": {
      "lat": "53.66215016",
      "long": -9.95523708
    }
  },
  {
    "safeName": "Inishdalla",
    "nameHtml": "<p><strong>Inishdalla</strong></p>\n",
    "geo": {
      "lat": "53.6800241",
      "long": -10.06807183
    }
  },
  {
    "safeName": "Inishturk",
    "nameHtml": "<p><strong>Inishturk</strong></p>\n",
    "geo": {
      "lat": "53.70566774",
      "long": -10.09204761
    }
  },
  {
    "safeName": "Carrickboorla",
    "nameHtml": "<p><strong>Carrickboorla</strong></p>\n",
    "geo": {
      "lat": "53.69403843",
      "long": -10.13992327
    }
  },
  {
    "safeName": "Carrickavea",
    "nameHtml": "<p><strong>Carrickavea</strong></p>\n",
    "geo": {
      "lat": "53.69403843",
      "long": -10.13992327
    }
  },
  {
    "safeName": "Ballybeg",
    "nameHtml": "<p><strong>Ballybeg</strong></p>\n",
    "geo": {
      "lat": "53.71186507",
      "long": -10.04539741
    }
  },
  {
    "safeName": "Caher-Island-–-_Oileán-na-Cathrach_",
    "nameHtml": "<p><strong>Caher Island – <em>Oileán na Cathrach</em></strong></p>\n",
    "geo": {
      "lat": "53.71584208",
      "long": -10.02286692
    }
  },
  {
    "safeName": "Roonah-Quay",
    "nameHtml": "<p><strong>Roonah Quay</strong></p>\n",
    "geo": {
      "lat": "53.76180073",
      "long": -9.90526943
    }
  },
  {
    "safeName": "Clare-Island",
    "nameHtml": "<p><strong>Clare Island</strong></p>\n",
    "geo": {
      "lat": "53.80060226",
      "long": -9.95104805
    }
  },
  {
    "safeName": "The-Islands-of-Clew-Bay",
    "nameHtml": "<p><strong>The Islands of Clew Bay</strong></p>\n",
    "geo": {
      "lat": "53.81544614",
      "long": -9.61768449
    }
  },
  {
    "safeName": "Inisheeny",
    "nameHtml": "<p><strong>Inisheeny</strong></p>\n",
    "geo": {
      "lat": "53.7999321",
      "long": -9.63530117
    }
  },
  {
    "safeName": "Inishdaugh",
    "nameHtml": "<p><strong>Inishdaugh</strong></p>\n",
    "geo": {
      "lat": "53.80335824",
      "long": -9.64757808
    }
  },
  {
    "safeName": "Inishleague",
    "nameHtml": "<p><strong>Inishleague</strong></p>\n",
    "geo": {
      "lat": "53.80684601",
      "long": -9.65530523
    }
  },
  {
    "safeName": "Inishraher",
    "nameHtml": "<p><strong>Inishraher</strong></p>\n",
    "geo": {
      "lat": "53.80354503",
      "long": -9.6339238
    }
  },
  {
    "safeName": "Dorinish-Mor",
    "nameHtml": "<p><strong>Dorinish Mor</strong></p>\n",
    "geo": {
      "lat": "53.81114702",
      "long": -9.66913882
    }
  },
  {
    "safeName": "Dorinish-Beg",
    "nameHtml": "<p><strong>Dorinish Beg</strong></p>\n",
    "geo": {
      "lat": "53.80849507",
      "long": -9.66599718
    }
  },
  {
    "safeName": "Inishimmel",
    "nameHtml": "<p><strong>Inishimmel</strong></p>\n",
    "geo": {
      "lat": "53.80949825",
      "long": -9.65844608
    }
  },
  {
    "safeName": "Inishlaghan",
    "nameHtml": "<p><strong>Inishlaghan</strong></p>\n",
    "geo": {
      "lat": "53.81311144",
      "long": -9.65707041
    }
  },
  {
    "safeName": "Inishgowla-South",
    "nameHtml": "<p><strong>Inishgowla South</strong></p>\n",
    "geo": {
      "lat": "53.81079148",
      "long": -9.62965097
    }
  },
  {
    "safeName": "Finnaun-Island",
    "nameHtml": "<p><strong>Finnaun Island</strong></p>\n",
    "geo": {
      "lat": "53.80732255",
      "long": -9.62040788
    }
  },
  {
    "safeName": "Crovinish",
    "nameHtml": "<p><strong>Crovinish</strong></p>\n",
    "geo": {
      "lat": "53.8169953",
      "long": -9.63596542
    }
  },
  {
    "safeName": "Illanataggart",
    "nameHtml": "<p><strong>Illanataggart</strong></p>\n",
    "geo": {
      "lat": "53.81897693",
      "long": -9.622376
    }
  },
  {
    "safeName": "Inishlyre",
    "nameHtml": "<p><strong>Inishlyre</strong></p>\n",
    "geo": {
      "lat": "53.82399268",
      "long": -9.64990628
    }
  },
  {
    "safeName": "Inishgort",
    "nameHtml": "<p><strong>Inishgort</strong></p>\n",
    "geo": {
      "lat": "53.82733297",
      "long": -9.66826338
    }
  },
  {
    "safeName": "Collan-Beg",
    "nameHtml": "<p><strong>Collan Beg</strong></p>\n",
    "geo": {
      "lat": "53.83295233",
      "long": -9.65177743
    }
  },
  {
    "safeName": "Collan-More",
    "nameHtml": "<p><strong>Collan More</strong></p>\n",
    "geo": {
      "lat": "53.82785469",
      "long": -9.63031319
    }
  },
  {
    "safeName": "Island-More",
    "nameHtml": "<p><strong>Island More</strong></p>\n",
    "geo": {
      "lat": "53.84450117",
      "long": -9.66134868
    }
  },
  {
    "safeName": "Clynish",
    "nameHtml": "<p><strong>Clynish</strong></p>\n",
    "geo": {
      "lat": "53.8449797",
      "long": -9.62642012
    }
  },
  {
    "safeName": "Inishbee",
    "nameHtml": "<p><strong>Inishbee</strong></p>\n",
    "geo": {
      "lat": "53.85162236",
      "long": -9.66618978
    }
  },
  {
    "safeName": "Derinish",
    "nameHtml": "<p><strong>Derinish</strong></p>\n",
    "geo": {
      "lat": "53.85005707",
      "long": -9.64941154
    }
  },
  {
    "safeName": "Calf-Island",
    "nameHtml": "<p><strong>Calf Island</strong></p>\n",
    "geo": {
      "lat": "53.85275123",
      "long": -9.64951748
    }
  },
  {
    "safeName": "Illannaconney",
    "nameHtml": "<p><strong>Illannaconney</strong></p>\n",
    "geo": {
      "lat": "53.85489951",
      "long": -9.62376511
    }
  },
  {
    "safeName": "Inishturkbeg",
    "nameHtml": "<p><strong>Inishturkbeg</strong></p>\n",
    "geo": {
      "lat": "53.85422636",
      "long": -9.60702143
    }
  },
  {
    "safeName": "Inishoo",
    "nameHtml": "<p><strong>Inishoo</strong></p>\n",
    "geo": {
      "lat": "53.85788755",
      "long": -9.66795861
    }
  },
  {
    "safeName": "Inishgowla",
    "nameHtml": "<p><strong>Inishgowla</strong></p>\n",
    "geo": {
      "lat": "53.85811864",
      "long": -9.65124851
    }
  },
  {
    "safeName": "Inishlaughil",
    "nameHtml": "<p><strong>Inishlaughil</strong></p>\n",
    "geo": {
      "lat": "53.86110355",
      "long": -9.63008548
    }
  },
  {
    "safeName": "Inishbollog",
    "nameHtml": "<p><strong>Inishbollog</strong></p>\n",
    "geo": {
      "lat": "53.86126801",
      "long": -9.61793154
    }
  },
  {
    "safeName": "Inishdaff",
    "nameHtml": "<p><strong>Inishdaff</strong></p>\n",
    "geo": {
      "lat": "53.85977692",
      "long": -9.59507426
    }
  },
  {
    "safeName": "Inishmolt",
    "nameHtml": "<p><strong>Inishmolt</strong></p>\n",
    "geo": {
      "lat": "53.86481926",
      "long": -9.62110891
    }
  },
  {
    "safeName": "Illanmaw",
    "nameHtml": "<p><strong>Illanmaw</strong></p>\n",
    "geo": {
      "lat": "53.86615921",
      "long": -9.6546056
    }
  },
  {
    "safeName": "Inishfesh",
    "nameHtml": "<p><strong>Inishfesh</strong></p>\n",
    "geo": {
      "lat": "53.8673693",
      "long": -9.63184935
    }
  },
  {
    "safeName": "Inishcuill",
    "nameHtml": "<p><strong>Inishcuill</strong></p>\n",
    "geo": {
      "lat": "53.87022814",
      "long": -9.61979769
    }
  },
  {
    "safeName": "Freaghillaun-East",
    "nameHtml": "<p><strong>Freaghillaun East</strong></p>\n",
    "geo": {
      "lat": "53.87267483",
      "long": -9.63813772
    }
  },
  {
    "safeName": "Freaghillaun-West",
    "nameHtml": "<p><strong>Freaghillaun West</strong></p>\n",
    "geo": {
      "lat": "53.87336451",
      "long": -9.65336953
    }
  },
  {
    "safeName": "Inishkee",
    "nameHtml": "<p><strong>Inishkee</strong></p>\n",
    "geo": {
      "lat": "53.87438781",
      "long": -9.64428675
    }
  },
  {
    "safeName": "Inishdoonver",
    "nameHtml": "<p><strong>Inishdoonver</strong></p>\n",
    "geo": {
      "lat": "53.87699853",
      "long": -9.65047164
    }
  },
  {
    "safeName": "Inishcoragh",
    "nameHtml": "<p><strong>Inishcoragh</strong></p>\n",
    "geo": {
      "lat": "53.88153052",
      "long": -9.64760857
    }
  },
  {
    "safeName": "Inishdasky",
    "nameHtml": "<p><strong>Inishdasky</strong></p>\n",
    "geo": {
      "lat": "53.88326393",
      "long": -9.65223928
    }
  },
  {
    "safeName": "Illannambraher",
    "nameHtml": "<p><strong>Illannambraher</strong></p>\n",
    "geo": {
      "lat": "53.88612483",
      "long": -9.6401845
    }
  },
  {
    "safeName": "Inishquirk",
    "nameHtml": "<p><strong>Inishquirk</strong></p>\n",
    "geo": {
      "lat": "53.8876072",
      "long": -9.6630576
    }
  },
  {
    "safeName": "Inishcannon",
    "nameHtml": "<p><strong>Inishcannon</strong></p>\n",
    "geo": {
      "lat": "53.87309075",
      "long": -9.67312498
    }
  },
  {
    "safeName": "Inishcarrick",
    "nameHtml": "<p><strong>Inishcarrick</strong></p>\n",
    "geo": {
      "lat": "53.87937701",
      "long": -9.67337595
    }
  },
  {
    "safeName": "Inishilra",
    "nameHtml": "<p><strong>Inishilra</strong></p>\n",
    "geo": {
      "lat": "53.88192231",
      "long": -9.68412322
    }
  },
  {
    "safeName": "Inishcorky",
    "nameHtml": "<p><strong>Inishcorky</strong></p>\n",
    "geo": {
      "lat": "53.8765128",
      "long": -9.68542644
    }
  },
  {
    "safeName": "Inishdeashbeg",
    "nameHtml": "<p><strong>Inishdeashbeg</strong></p>\n",
    "geo": {
      "lat": "53.88093883",
      "long": -9.69016677
    }
  },
  {
    "safeName": "Inishnacross",
    "nameHtml": "<p><strong>Inishnacross</strong></p>\n",
    "geo": {
      "lat": "53.88459507",
      "long": -9.68575155
    }
  },
  {
    "safeName": "Inishdeashmore",
    "nameHtml": "<p><strong>Inishdeashmore</strong></p>\n",
    "geo": {
      "lat": "53.87997652",
      "long": -9.69469017
    }
  },
  {
    "safeName": "Roeillaun",
    "nameHtml": "<p><strong>Roeillaun</strong></p>\n",
    "geo": {
      "lat": "53.87531414",
      "long": -9.70666621
    }
  },
  {
    "safeName": "Inishcooa",
    "nameHtml": "<p><strong>Inishcooa</strong></p>\n",
    "geo": {
      "lat": "53.88070225",
      "long": -9.70688565
    }
  },
  {
    "safeName": "Inisherkin",
    "nameHtml": "<p><strong>Inisherkin</strong></p>\n",
    "geo": {
      "lat": "53.8870747",
      "long": -9.70106128
    }
  },
  {
    "safeName": "Moynish-More",
    "nameHtml": "<p><strong>Moynish More</strong></p>\n",
    "geo": {
      "lat": "53.88942162",
      "long": -9.72549394
    }
  },
  {
    "safeName": "Achillbeg-Island",
    "nameHtml": "<p><strong>Achillbeg Island</strong></p>\n",
    "geo": {
      "lat": "53.86537467",
      "long": -9.9464599
    }
  },
  {
    "safeName": "Bills-Rocks",
    "nameHtml": "<p><strong>Bills Rocks</strong></p>\n",
    "geo": {
      "lat": "53.87350445",
      "long": -10.20382036
    }
  },
  {
    "safeName": "Inishgalloon",
    "nameHtml": "<p><strong>Inishgalloon</strong></p>\n",
    "geo": {
      "lat": "53.96255092",
      "long": -10.09879696
    }
  },
  {
    "safeName": "Head",
    "nameHtml": "<p><strong>Head</strong></p>\n",
    "geo": {
      "lat": "53.97488362",
      "long": -10.26099621
    }
  },
  {
    "safeName": "Inishbiggle",
    "nameHtml": "<p><strong>Inishbiggle</strong></p>\n",
    "geo": {
      "lat": "53.99440999",
      "long": -9.91282505
    }
  },
  {
    "safeName": "Inishaghoo",
    "nameHtml": "<p><strong>Inishaghoo</strong></p>\n",
    "geo": {
      "lat": "54.00476829",
      "long": -9.88279322
    }
  },
  {
    "safeName": "Annagh-Island",
    "nameHtml": "<p><strong>Annagh Island</strong></p>\n",
    "geo": {
      "lat": "53.97646122",
      "long": -9.85407925
    }
  },
  {
    "safeName": "Illancroagh-and-Heath-Island",
    "nameHtml": "<p><strong>Illancroagh and Heath Island</strong></p>\n",
    "geo": {
      "lat": "53.96214124",
      "long": -9.85039614
    }
  },
  {
    "safeName": "InishkeasDuvillauns-Group",
    "nameHtml": "<p><strong>Inishkeas/Duvillauns Group</strong></p>\n",
    "geo": {
      "lat": "54.09518215",
      "long": -10.11924608
    }
  },
  {
    "safeName": "Black-Rock",
    "nameHtml": "<p><strong>Black Rock</strong></p>\n",
    "geo": {
      "lat": "54.06725442",
      "long": -10.31795617
    }
  },
  {
    "safeName": "Duvillaun-Mór",
    "nameHtml": "<p><strong>Duvillaun Mór</strong></p>\n",
    "geo": {
      "lat": "54.07088729",
      "long": -10.17148284
    }
  },
  {
    "safeName": "Duvillaun-Beg",
    "nameHtml": "<p><strong>Duvillaun Beg</strong></p>\n",
    "geo": {
      "lat": "54.07741881",
      "long": -10.15807102
    }
  },
  {
    "safeName": "Gaghta-Island",
    "nameHtml": "<p><strong>Gaghta Island</strong></p>\n",
    "geo": {
      "lat": "54.08672373",
      "long": -10.14021282
    }
  },
  {
    "safeName": "Leamareha",
    "nameHtml": "<p><strong>Leamareha</strong></p>\n",
    "geo": {
      "lat": "54.08783824",
      "long": -10.12804252
    }
  },
  {
    "safeName": "Inishkea-(Inis-Gé)-South",
    "nameHtml": "<p><strong>Inishkea (Inis Gé) South</strong></p>\n",
    "geo": {
      "lat": "54.11788318",
      "long": -10.20606028
    }
  },
  {
    "safeName": "Rusheen-Island",
    "nameHtml": "<p><strong>Rusheen Island</strong></p>\n",
    "geo": {
      "lat": "54.11976258",
      "long": -10.20157114
    }
  },
  {
    "safeName": "Inishkea-North",
    "nameHtml": "<p><strong>Inishkea North</strong></p>\n",
    "geo": {
      "lat": "54.12974916",
      "long": -10.19598058
    }
  },
  {
    "safeName": "Carricknaweelion",
    "nameHtml": "<p><strong>Carricknaweelion</strong></p>\n",
    "geo": {
      "lat": "54.14501031",
      "long": -10.19678815
    }
  },
  {
    "safeName": "Carrickawilt",
    "nameHtml": "<p><strong>Carrickawilt</strong></p>\n",
    "geo": {
      "lat": "54.1531734",
      "long": -10.19262776
    }
  },
  {
    "safeName": "Carrigee",
    "nameHtml": "<p><strong>Carrigee</strong></p>\n",
    "geo": {
      "lat": "54.15763409",
      "long": -10.19439462
    }
  },
  {
    "safeName": "Carric_km_oylenacurhoga",
    "nameHtml": "<p><strong>Carric_km_oylenacurhoga</strong></p>\n",
    "geo": {
      "lat": "54.16046643",
      "long": -10.18688871
    }
  },
  {
    "safeName": "Erris-Head-Area",
    "nameHtml": "<p><strong>Erris Head Area</strong></p>\n",
    "geo": {
      "lat": "54.30843844",
      "long": -9.99650352
    }
  },
  {
    "safeName": "Inishkeeragh",
    "nameHtml": "<p><strong>Inishkeeragh</strong></p>\n",
    "geo": {
      "lat": "54.20272348",
      "long": -10.1354751
    }
  },
  {
    "safeName": "Inishglora",
    "nameHtml": "<p><strong>Inishglora</strong></p>\n",
    "geo": {
      "lat": "54.20745581",
      "long": -10.12192334
    }
  },
  {
    "safeName": "Annagh-Island",
    "nameHtml": "<p><strong>Annagh Island</strong></p>\n",
    "geo": {
      "lat": "54.24094157",
      "long": -10.10830017
    }
  },
  {
    "safeName": "Eagle-Island",
    "nameHtml": "<p><strong>Eagle Island</strong></p>\n",
    "geo": {
      "lat": "54.28353644",
      "long": -10.08743934
    }
  },
  {
    "safeName": "Illandavuck",
    "nameHtml": "<p><strong>Illandavuck</strong></p>\n",
    "geo": {
      "lat": "54.30666824",
      "long": -9.99488134
    }
  },
  {
    "safeName": "Cone-Island-South",
    "nameHtml": "<p><strong>Cone Island South</strong></p>\n",
    "geo": {
      "lat": "54.28205819",
      "long": -9.96144476
    }
  },
  {
    "safeName": "Belmullet",
    "nameHtml": "<p><strong>Belmullet</strong></p>\n",
    "geo": {
      "lat": "54.22499254",
      "long": -9.98940823
    }
  },
  {
    "safeName": "–-_Oileán-Mionnán_",
    "nameHtml": "<p><strong>– <em>Oileán Mionnán</em></strong></p>\n",
    "geo": {
      "lat": "54.32850978",
      "long": -9.86526683
    }
  },
  {
    "safeName": "Stags-of-Broad-Haven-–-_Na-Stacaí_",
    "nameHtml": "<p><strong>Stags of Broad Haven – <em>Na Stacaí</em></strong></p>\n",
    "geo": {
      "lat": "54.36651011",
      "long": -9.78851453
    }
  },
  {
    "safeName": "Pig-Island-_–-Oileán-na-Muice_",
    "nameHtml": "<p><strong>Pig Island <em>– Oileán na Muice</em></strong></p>\n",
    "geo": {
      "lat": "54.3324303",
      "long": -9.72246444
    }
  },
  {
    "safeName": "Illanmaster-_–-Oileán-Maigheastar_",
    "nameHtml": "<p><strong>Illanmaster <em>– Oileán Maigheastar</em></strong></p>\n",
    "geo": {
      "lat": "54.32642339",
      "long": -9.63766952
    }
  },
  {
    "safeName": "Horse-Island",
    "nameHtml": "<p><strong>Horse Island</strong></p>\n",
    "geo": {
      "lat": "54.3211357",
      "long": -9.56214919
    }
  },
  {
    "safeName": "Dún-Briste",
    "nameHtml": "<p><strong>Dún Briste</strong></p>\n",
    "geo": {
      "lat": "54.32820223",
      "long": -9.34874948
    }
  },
  {
    "safeName": "Bartragh-Island",
    "nameHtml": "<p><strong>Bartragh Island</strong></p>\n",
    "geo": {
      "lat": "54.22286423",
      "long": -9.19965877
    }
  }
]