[{"safeName":"Lough-Foyle","nameHtml":"<p><strong>Lough Foyle</strong></p>\n","geo":{"lat":"55.19369052","long":-6.96442359}},{"safeName":"Downhill","nameHtml":"<p><strong>Downhill</strong></p>\n","geo":{"lat":"55.16721802","long":-6.81917323}},{"safeName":"River-Bann","nameHtml":"<p><strong>River Bann</strong></p>\n","geo":{"lat":"55.17124307","long":-6.77197253}},{"safeName":"Portstewart","nameHtml":"<p><strong>Portstewart</strong></p>\n","geo":{"lat":"55.18778894","long":-6.72122191}},{"safeName":"Portstewart-to-Portrush","nameHtml":"<p><strong>Portstewart to Portrush</strong></p>\n","geo":{"lat":"55.18778894","long":-6.72122191}},{"safeName":"Portrush","nameHtml":"<p><strong>Portrush</strong></p>\n","geo":{"lat":"55.20595449","long":-6.65623781}},{"safeName":"The-Skerries-–-Portrush","nameHtml":"<p><strong>The Skerries – Portrush</strong></p>\n","geo":{"lat":"55.22358133","long":-6.62578557}},{"safeName":"Portrush-to-Portballintrae","nameHtml":"<p><strong>Portrush to Portballintrae</strong></p>\n","geo":{"lat":"55.20595449","long":-6.65623781}},{"safeName":"Portballintrae-to-Dunseverick","nameHtml":"<p><strong>Portballintrae to Dunseverick</strong></p>\n","geo":{"lat":"55.21988365","long":-6.53948915}},{"safeName":"Dunseverick-to-Ballintoy","nameHtml":"<p><strong>Dunseverick to Ballintoy</strong></p>\n","geo":{"lat":"55.23918918","long":-6.43030485}},{"safeName":"Ballintoy-–-Ballycastle","nameHtml":"<p><strong>Ballintoy – Ballycastle</strong></p>\n","geo":{"lat":"55.24644505","long":-6.36712167}},{"safeName":"Sheep-Island","nameHtml":"<p><strong>Sheep Island</strong></p>\n","geo":{"lat":"55.24805065","long":-6.35290332}},{"safeName":"Carrickarede-Island","nameHtml":"<p><strong>Carrickarede Island</strong></p>\n","geo":{"lat":"55.23967118","long":-6.33123925}},{"safeName":"Ballycastle-–-Cushendall","nameHtml":"<p><strong>Ballycastle – Cushendall</strong></p>\n","geo":{"lat":"55.20784313","long":-6.23988563}},{"safeName":"West-Maiden","nameHtml":"<p><strong>West Maiden</strong></p>\n","geo":{"lat":"54.93003618","long":-5.73873739}},{"safeName":"East-Maiden","nameHtml":"<p><strong>East Maiden</strong></p>\n","geo":{"lat":"54.92893512","long":-5.72787757}},{"safeName":"Muck-Island","nameHtml":"<p><strong>Muck Island</strong></p>\n","geo":{"lat":"54.84881873","long":-5.71992556}},{"safeName":"Cockle-Island","nameHtml":"<p><strong>Cockle Island</strong></p>\n","geo":{"lat":"54.67796225","long":-5.61941852}},{"safeName":"Copeland-Island","nameHtml":"<p><strong>Copeland Island</strong></p>\n","geo":{"lat":"54.67359734","long":-5.5359477}},{"safeName":"Lighthouse-Island","nameHtml":"<p><strong>Lighthouse Island</strong></p>\n","geo":{"lat":"54.69312055","long":-5.52390581}},{"safeName":"Mew-Island","nameHtml":"<p><strong>Mew Island</strong></p>\n","geo":{"lat":"54.69744926","long":-5.51588505}},{"safeName":"Guns-Island","nameHtml":"<p><strong>Guns Island</strong></p>\n","geo":{"lat":"54.29735434","long":-5.54925954}},{"safeName":"Blockhouse-Island","nameHtml":"<p><strong>Blockhouse Island</strong></p>\n","geo":{"lat":"54.02043588","long":-6.08594502}}]